[{
    "lat": 53.4835275,
    "lng": 10.2060185,
    "name": "Teacher1",
    "specialisations": [],
    "address": "Curslacker Neuer Deich 16-20, 21029 Hamburg-Bergedorf",
    "telephone": "040-345",
    "mobile": "0160-1111111",
    "whatsapp": "Whatsapp contact",
    "email": "email@example.com",
    "facebook": "https://facebook.com",
    "website": "https://www.google.com"
  },
  {
    "lat": 53.5757908,
    "lng": 10.1944457,
    "name": "Teacher2",
    "specialisations": ["medical", "human resources"],
    "address": "Rahlstedter Str. 2, 22885 Barsbüttel",
    "telephone": "040-345",
    "mobile": "0160-1111114",
    "whatsapp": "Whatsapp contact",
    "email": "email@example.com",
    "facebook": "https://facebook.com",
    "website": "https://www.google.com"
  },
  {
    "lat": 53.5771956,
    "lng": 10.0807971,
    "name": "Teacher3",
    "specialisations": ["medical", "technical", "publishing"],
    "address": "Wandsbeker Zollstr. 95, 22041 Hamburg-Wandsbek",
    "telephone": "040-234",
    "mobile": "0160-1111112",
    "whatsapp": "Whatsapp contact",
    "email": "email@example.com",
    "facebook": "https://facebook.com",
    "website": "https://www.google.com"
  },
  {
    "lat": 53.5125276,
    "lng": 10.092035,
    "name": "Teacher4",
    "specialisations": ["technical", "children"],
    "address": "Unterer Landweg 77, 22113 Hamburg",
    "telephone": "040-234",
    "mobile": "0160-1111112",
    "whatsapp": "Whatsapp contact",
    "email": "email@example.com",
    "facebook": "https://facebook.com",
    "website": "https://www.google.com"
  },
  {
    "lat": 53.4586075,
    "lng": 9.9927707,
    "name": "Teacher5",
    "specialisations": ["medical", "technical", "children"],
    "address": "Schlachthofstr. 1, 21079 Hamburg-Harburg",
    "telephone": "040-234",
    "mobile": "0160-1111112",
    "whatsapp": "Whatsapp contact",
    "email": "email@example.com",
    "facebook": "https://facebook.com",
    "website": "https://www.google.com"
  },
  {
    "lat": 53.6644525,
    "lng": 9.994121,
    "name": "Teacher6",
    "specialisations": ["coaching", "publishing"],
    "address": "Tarpen 19, 22419 Hamburg-Langenhorn",
    "telephone": "040-123",
    "mobile": "",
    "whatsapp": "WhatsApp contact",
    "email": "email@example.com",
    "facebook": "",
    "website": "https://www.google.com"
  },
  {
    "lat": 53.5856478,
    "lng": 9.872535,
    "name": "Teacher7",
    "specialisations": ["coaching", "children"],
    "address": "Rugenbarg 252, 22549 Hamburg-Lurup",
    "telephone": "040-123",
    "mobile": "",
    "whatsapp": "WhatsApp contact",
    "email": "email@example.com",
    "facebook": "https://facebook.com",
    "website": "https://www.google.com"
  },
  {
    "lat": 53.604723,
    "lng": 9.9616336,
    "name": "Teacher8",
    "specialisations": ["children"],
    "address": "Alte Kollaustraße 44/46, 22529 Hamburg-Lokstedt",
    "telephone": "040-234",
    "mobile": "0160-1111112",
    "whatsapp": "Whatsapp contact",
    "email": "email@example.com",
    "facebook": "https://facebook.com",
    "website": "https://www.google.com"
  },
  {
    "lat": 53.5922,
    "lng": 9.9287,
    "name": "Teacher9",
    "specialisations": ["medical"],
    "address": "Kieler Str. 499 , 22525 Hamburg-Stellingen",
    "telephone": "040-234",
    "mobile": "0160-1111112",
    "whatsapp": "Whatsapp contact",
    "email": "email@example.com",
    "facebook": "https://facebook.com",
    "website": "https://www.google.com"
  },
  {
    "lat": 53.6034827,
    "lng": 10.0725954,
    "name": "Teacher2",
    "specialisations": ["medical", "human resources", "children"],
    "address": "Bramfelder Chaussee 136, 22177 Hamburg-Bramfeld",
    "telephone": "040-234",
    "mobile": "0160-1111112",
    "whatsapp": "Whatsapp contact",
    "email": "email@example.com",
    "facebook": "https://facebook.com",
    "website": "https://www.google.com"
  }
]